City_ID,City,Country,Date,Lat,Lng,Overall Weather,Weather Description,Max Temp,Humidity,Cloudiness,Wind Speed,Rain Inches (last 3 hrs),Snow Inches (last 3 hrs)
0,Nhulunbuy,AU,2022-03-26 00:22:34,-12.2333,136.7667,Clouds,overcast clouds,83.01,74,100,11.5,0,0
1,Dawei,MM,2022-03-26 00:22:34,14.0833,98.2,Clear,clear sky,76.84,89,5,3.22,0,0
2,Saskylakh,RU,2022-03-26 00:22:35,71.9167,114.0833,Clouds,overcast clouds,-17.93,100,100,1.99,0,0
3,Rikitea,PF,2022-03-26 00:21:39,-23.1203,-134.9692,Rain,light rain,79.68,73,20,17.25,0,0
4,Yellowknife,CA,2022-03-26 00:20:51,62.456,-114.3525,Clear,clear sky,-1.59,51,0,6.91,0,0
5,Coihaique,CL,2022-03-26 00:22:35,-45.5752,-72.0662,Clouds,scattered clouds,56.01,82,40,2.3,0,0
6,Narsaq,GL,2022-03-26 00:22:36,60.9167,-46.05,Clear,clear sky,28.62,82,6,5.44,0,0
7,Loubomo,CG,2022-03-26 00:22:36,-4.1997,12.6739,Rain,moderate rain,72.43,97,96,2.64,0,0
8,Komsomolskiy,UZ,2022-03-26 00:18:20,40.4272,71.7189,Mist,mist,43.52,87,78,4.61,0,0
9,Itarema,BR,2022-03-26 00:22:37,-2.9248,-39.9167,Clouds,scattered clouds,77.99,85,39,8.03,0,0
10,Xiamen,CN,2022-03-26 00:22:37,24.4798,118.0819,Mist,mist,69.85,94,100,2.24,0,0
11,Upernavik,GL,2022-03-26 00:22:37,72.7868,-56.1549,Clouds,overcast clouds,2.41,95,100,10.33,0,0
12,Beyneu,KZ,2022-03-26 00:22:38,45.3167,55.2,Clouds,overcast clouds,35.89,99,100,12.15,0,0
13,Ternate,ID,2022-03-26 00:19:37,0.8,127.4,Clouds,overcast clouds,81.79,76,98,7.47,0,0
14,Sao Joao Da Barra,BR,2022-03-26 00:22:38,-21.6403,-41.0511,Clouds,broken clouds,78.3,88,77,15.82,0,0
15,Mar Del Plata,AR,2022-03-26 00:18:38,-38.0023,-57.5575,Drizzle,light intensity drizzle,66.09,94,100,17.0,0,0
16,Ushuaia,AR,2022-03-26 00:22:39,-54.8,-68.3,Rain,light rain,49.66,81,75,6.91,0,0
17,Atuona,PF,2022-03-26 00:22:39,-9.8,-139.0333,Clouds,scattered clouds,79.45,80,50,19.08,0,0
18,Lebu,CL,2022-03-26 00:22:39,-37.6167,-73.65,Clear,clear sky,55.69,87,0,12.88,0,0
19,Dikson,RU,2022-03-26 00:22:40,73.5069,80.5464,Clouds,overcast clouds,7.56,92,100,7.47,0,0
20,Carnarvon,AU,2022-03-26 00:22:40,-24.8667,113.6333,Clouds,scattered clouds,80.67,78,33,8.05,0,0
21,Moroni,KM,2022-03-26 00:22:40,-11.7022,43.2551,Clouds,broken clouds,80.02,77,55,5.46,0,0
22,Quelimane,MZ,2022-03-26 00:22:41,-17.8786,36.8883,Clear,clear sky,78.75,94,0,4.61,0,0
23,Codrington,AU,2022-03-26 00:22:41,-38.2667,141.9667,Clouds,few clouds,63.99,65,13,5.88,0,0
24,Sicuani,PE,2022-03-26 00:22:41,-14.2694,-71.2261,Clouds,overcast clouds,50.9,75,97,4.76,0,0
25,San Patricio,US,2022-03-26 00:22:42,28.017,-97.5169,Clear,clear sky,84.29,34,0,13.06,0,0
26,Hualmay,PE,2022-03-26 00:22:42,-11.0964,-77.6139,Clouds,broken clouds,71.02,81,74,8.99,0,0
27,Abu Samrah,SY,2022-03-26 00:22:43,35.3029,37.1841,Clear,clear sky,41.65,76,0,13.71,0,0
28,Mount Gambier,AU,2022-03-26 00:22:43,-37.8333,140.7667,Clouds,few clouds,64.44,65,20,5.82,0,0
29,Ribeira Grande,PT,2022-03-26 00:22:43,38.5167,-28.7,Clouds,overcast clouds,58.42,87,100,18.7,0,0
30,Pisco,PE,2022-03-26 00:22:44,-13.7,-76.2167,Clear,clear sky,69.85,68,0,4.61,0,0
31,Mehamn,NO,2022-03-26 00:22:44,71.0357,27.8492,Clouds,overcast clouds,23.41,66,100,15.7,0,0
32,Havoysund,NO,2022-03-26 00:22:44,70.9963,24.6622,Snow,light snow,26.83,71,100,18.12,0,0
33,Victoria,HK,2022-03-26 00:22:38,22.2855,114.1577,Clouds,broken clouds,80.65,92,74,18.01,0,0
34,Jizan,SA,2022-03-26 00:22:45,17.3333,42.6667,Clear,clear sky,79.74,64,2,0.51,0,0
35,Hilo,US,2022-03-26 00:22:45,19.7297,-155.09,Clear,clear sky,80.33,61,0,11.5,0,0
36,Qaanaaq,GL,2022-03-26 00:22:46,77.484,-69.3632,Clouds,overcast clouds,2.5,72,99,5.84,0,0
37,Ixtapa,MX,2022-03-26 00:22:46,20.7,-105.2,Clouds,few clouds,74.43,69,20,11.5,0,0
38,Zhigansk,RU,2022-03-26 00:22:46,66.7697,123.3711,Clouds,overcast clouds,3.45,98,100,7.07,0,0
39,Gigmoto,PH,2022-03-26 00:22:47,13.7796,124.39,Clouds,few clouds,82.69,73,22,9.8,0,0
40,Saldanha,ZA,2022-03-26 00:22:47,-33.0117,17.9442,Clouds,few clouds,57.25,77,11,12.3,0,0
41,Zhenjiang,CN,2022-03-26 00:22:47,32.2092,119.4342,Clouds,overcast clouds,55.8,82,92,1.01,0,0
42,Asyut,EG,2022-03-26 00:22:48,27.181,31.1837,Clear,clear sky,53.1,47,0,10.0,0,0
43,Bluff,NZ,2022-03-26 00:22:48,-46.6,168.3333,Clouds,overcast clouds,60.15,76,100,12.15,0,0
44,Vieux-Habitants,GP,2022-03-26 00:22:49,16.0589,-61.7659,Clear,clear sky,74.77,73,5,12.55,0,0
45,Busselton,AU,2022-03-26 00:22:49,-33.65,115.3333,Clouds,overcast clouds,66.61,84,100,11.95,0,0
46,Irtyshskiy,RU,2022-03-26 00:22:49,58.3333,68.1333,Clouds,scattered clouds,8.22,93,28,8.84,0,0
47,Bredasdorp,ZA,2022-03-26 00:22:50,-34.5322,20.0403,Clouds,overcast clouds,63.28,74,97,11.07,0,0
48,Saint George,US,2022-03-26 00:19:41,37.1041,-113.5841,Clear,clear sky,86.95,11,0,6.91,0,0
49,Coruripe,BR,2022-03-26 00:22:10,-10.1256,-36.1756,Clouds,overcast clouds,78.66,81,99,7.99,0,0
50,Mahebourg,MU,2022-03-26 00:22:51,-20.4081,57.7,Clouds,scattered clouds,77.25,100,40,4.61,0,0
51,Ocampo,MX,2022-03-26 00:22:51,21.65,-101.5,Clouds,few clouds,68.67,11,11,10.89,0,0
52,Puerto Ayora,EC,2022-03-26 00:22:51,-0.7393,-90.3518,Rain,light rain,78.94,82,65,5.08,0,0
53,Tuktoyaktuk,CA,2022-03-26 00:22:52,69.4541,-133.0374,Clear,clear sky,-5.8,65,0,20.71,0,0
54,Sivaki,RU,2022-03-26 00:22:52,52.6333,126.75,Clouds,overcast clouds,24.6,81,100,5.84,0,0
55,La Ronge,CA,2022-03-26 00:22:52,55.1001,-105.2842,Clear,clear sky,14.25,34,0,10.36,0,0
56,Khani,GE,2022-03-26 00:22:53,41.9563,42.9566,Clouds,overcast clouds,27.97,93,100,3.69,0,0
57,Caravelas,BR,2022-03-26 00:22:53,-17.7125,-39.2481,Clouds,scattered clouds,75.65,87,38,5.03,0,0
58,Ponta Do Sol,PT,2022-03-26 00:22:54,32.6667,-17.1,Clouds,broken clouds,62.01,79,74,6.33,0,0
59,Ilulissat,GL,2022-03-26 00:22:54,69.2167,-51.1,Snow,light snow,17.62,79,75,1.14,0,0
60,Punta Arenas,CL,2022-03-26 00:22:54,-53.15,-70.9167,Clouds,broken clouds,57.31,62,75,17.27,0,0
61,Mapiri,BO,2022-03-26 00:22:55,-15.25,-68.1667,Clouds,overcast clouds,69.67,99,100,1.1,0,0
62,Auki,SB,2022-03-26 00:22:55,-8.7676,160.7034,Clouds,broken clouds,82.76,78,79,3.49,0,0
63,Itarantim,BR,2022-03-26 00:22:55,-15.6597,-40.0656,Clear,clear sky,70.27,88,3,3.85,0,0
64,Kudahuvadhoo,MV,2022-03-26 00:22:56,2.6708,72.8944,Clear,clear sky,81.43,71,4,6.93,0,0
65,Mataura,NZ,2022-03-26 00:22:56,-46.1927,168.8643,Clouds,overcast clouds,59.16,82,95,3.83,0,0
66,Boca Do Acre,BR,2022-03-26 00:22:56,-8.7522,-67.3978,Clouds,overcast clouds,75.43,97,91,1.9,0,0
67,Barrow,US,2022-03-26 00:21:35,71.2906,-156.7887,Haze,haze,1.42,78,100,21.85,0,0
68,Tasiilaq,GL,2022-03-26 00:22:57,65.6145,-37.6368,Clouds,overcast clouds,17.76,94,100,7.67,0,0
69,Tampa,US,2022-03-26 00:20:04,27.9475,-82.4584,Clouds,overcast clouds,70.21,63,100,9.22,0,0
70,Necochea,AR,2022-03-26 00:22:57,-38.5473,-58.7368,Clouds,overcast clouds,62.29,94,100,20.02,0,0
71,Jamestown,US,2022-03-26 00:22:27,42.097,-79.2353,Clouds,overcast clouds,37.53,72,100,8.99,0,0
72,Lander,US,2022-03-26 00:22:58,42.833,-108.7307,Clear,clear sky,65.1,26,0,6.91,0,0
73,Tral,IN,2022-03-26 00:22:58,33.9333,75.1,Clear,clear sky,45.01,45,0,6.55,0,0
74,Hermanus,ZA,2022-03-26 00:22:59,-34.4187,19.2345,Clouds,overcast clouds,60.8,77,89,14.94,0,0
75,Olafsvik,IS,2022-03-26 00:22:59,64.8945,-23.7142,Clouds,overcast clouds,41.52,93,100,33.93,0,0
76,Kapaa,US,2022-03-26 00:23:00,22.0752,-159.319,Clouds,scattered clouds,82.38,66,40,21.85,0,0
77,Chipinge,ZW,2022-03-26 00:23:00,-20.1883,32.6236,Clouds,scattered clouds,66.67,69,43,2.51,0,0
78,Ust-Kan,RU,2022-03-26 00:21:19,50.9276,84.761,Clouds,overcast clouds,9.07,88,100,7.72,0,0
79,Margate,GB,2022-03-26 00:23:01,51.3813,1.3862,Clear,clear sky,48.31,80,6,4.0,0,0
80,Senneterre,CA,2022-03-26 00:23:01,48.3835,-77.2328,Snow,light snow,32.11,100,100,1.97,0,0
81,Butaritari,KI,2022-03-26 00:23:02,3.0707,172.7902,Clouds,scattered clouds,80.26,76,33,9.73,0,0
82,New Norfolk,AU,2022-03-26 00:23:02,-42.7826,147.0587,Clear,clear sky,67.71,49,6,2.73,0,0
83,Farafangana,MG,2022-03-26 00:23:02,-22.8167,47.8333,Rain,light rain,74.88,95,25,3.71,0,0
84,Vermillion,US,2022-03-26 00:23:03,42.7794,-96.9292,Clear,clear sky,50.16,27,0,18.66,0,0
85,Prata,BR,2022-03-26 00:23:03,-19.3072,-48.9242,Clouds,overcast clouds,77.68,66,100,0.74,0,0
86,Sechura,PE,2022-03-26 00:23:04,-5.5569,-80.8222,Clouds,broken clouds,75.42,63,72,17.9,0,0
87,Tiksi,RU,2022-03-26 00:23:04,71.6872,128.8694,Clouds,broken clouds,-6.65,100,83,3.65,0,0
88,Hobart,AU,2022-03-26 00:23:05,-42.8794,147.3294,Clear,clear sky,68.05,69,0,5.75,0,0
89,Erenhot,CN,2022-03-26 00:23:05,43.6475,111.9767,Clouds,overcast clouds,30.72,24,97,14.12,0,0
90,Vaini,TO,2022-03-26 00:23:05,-21.2,-175.2,Clouds,few clouds,82.56,69,20,10.36,0,0
91,Khorixas,NA,2022-03-26 00:23:06,-20.3667,14.9667,Clear,clear sky,68.94,81,0,3.0,0,0
92,Albany,US,2022-03-26 00:20:47,42.6001,-73.9662,Clouds,overcast clouds,47.75,67,99,1.01,0,0
93,Cherskiy,RU,2022-03-26 00:23:06,68.75,161.3,Clouds,overcast clouds,-7.19,89,99,3.56,0,0
94,Pudem,RU,2022-03-26 00:19:14,58.3044,52.1675,Clouds,broken clouds,19.83,81,78,9.04,0,0
95,Ullapool,GB,2022-03-26 00:23:07,57.8987,-5.1604,Clouds,scattered clouds,48.34,93,25,1.12,0,0
96,Yablonovo,RU,2022-03-26 00:23:07,50.8523,37.3574,Clouds,overcast clouds,31.53,97,100,6.33,0,0
97,Isangel,VU,2022-03-26 00:23:08,-19.55,169.2667,Clouds,broken clouds,87.91,70,75,5.75,0,0
98,Bethel,US,2022-03-26 00:20:04,41.3712,-73.414,Clouds,overcast clouds,52.02,62,100,6.91,0,0
99,Sola,VU,2022-03-26 00:23:08,-13.8833,167.55,Clouds,broken clouds,88.47,70,75,2.3,0,0
100,Port Alfred,ZA,2022-03-26 00:23:09,-33.5906,26.891,Rain,light rain,63.45,83,69,4.45,0,0
101,Birjand,IR,2022-03-26 00:23:09,32.8663,59.2211,Clouds,broken clouds,61.27,20,56,4.61,0,0
102,Avarua,CK,2022-03-26 00:23:10,-21.2078,-159.775,Clouds,few clouds,82.45,78,20,13.8,0,0
103,Atoyac,MX,2022-03-26 00:23:10,20.0167,-103.5333,Clear,clear sky,84.34,11,3,2.04,0,0
104,Brae,GB,2022-03-26 00:23:10,60.3964,-1.353,Clouds,overcast clouds,44.56,91,100,9.17,0,0
105,Pitea,SE,2022-03-26 00:23:11,65.3172,21.4794,Clouds,overcast clouds,26.69,87,100,13.02,0,0
106,Trelew,AR,2022-03-26 00:23:11,-43.249,-65.3051,Clouds,few clouds,58.3,54,23,12.73,0,0
107,Cidreira,BR,2022-03-26 00:23:12,-30.1811,-50.2056,Clear,clear sky,66.58,83,9,7.45,0,0
108,Port Hedland,AU,2022-03-26 00:23:12,-20.3167,118.5667,Clouds,scattered clouds,86.05,70,42,9.22,0,0
109,Keti Bandar,PK,2022-03-26 00:23:12,24.1447,67.4497,Clear,clear sky,76.59,77,0,9.33,0,0
110,Japura,ID,2022-03-26 00:23:13,-0.3167,102.35,Clouds,scattered clouds,76.12,90,48,0.45,0,0
111,Aklavik,CA,2022-03-26 00:23:14,68.2191,-135.0107,Clouds,broken clouds,4.01,85,68,14.09,0,0
112,Kodiak,US,2022-03-26 00:23:14,57.79,-152.4072,Clouds,broken clouds,42.31,75,75,17.27,0,0
113,Dondo,MZ,2022-03-26 00:23:14,-19.6094,34.7431,Clouds,few clouds,78.31,96,21,3.69,0,0
114,Waw,SS,2022-03-26 00:23:15,7.7029,27.9953,Clear,clear sky,81.55,13,3,8.77,0,0
115,Vardo,NO,2022-03-26 00:23:15,70.3705,31.1107,Clouds,overcast clouds,25.57,59,100,19.44,0,0
116,Dingle,PH,2022-03-26 00:23:16,10.9995,122.6711,Clouds,scattered clouds,82.58,73,32,9.24,0,0
117,Arrifes,PT,2022-03-26 00:23:16,37.7667,-25.7,Clouds,broken clouds,59.25,88,75,27.63,0,0
118,Bousso,TD,2022-03-26 00:23:16,10.4795,16.7117,Clouds,overcast clouds,84.97,12,100,11.41,0,0
119,Qaqortoq,GL,2022-03-26 00:23:17,60.7167,-46.0333,Clear,clear sky,19.76,84,6,4.94,0,0
120,Saint-Philippe,RE,2022-03-26 00:23:17,-21.3585,55.7679,Clear,clear sky,74.21,84,3,7.47,0,0
121,Luderitz,NA,2022-03-26 00:18:20,-26.6481,15.1594,Clear,clear sky,61.47,78,0,13.56,0,0
122,Iskateley,RU,2022-03-26 00:23:18,67.6803,53.1512,Clouds,broken clouds,7.93,89,81,9.35,0,0
123,Sisimiut,GL,2022-03-26 00:23:18,66.9395,-53.6735,Clouds,overcast clouds,15.98,95,100,5.93,0,0
124,Cape Town,ZA,2022-03-26 00:20:32,-33.9258,18.4232,Clear,clear sky,63.12,67,0,3.44,0,0
125,Arlit,NE,2022-03-26 00:23:19,18.7369,7.3853,Clouds,broken clouds,79.92,11,63,11.79,0,0
126,Lavrentiya,RU,2022-03-26 00:23:19,65.5833,-171.0,Clouds,scattered clouds,16.72,82,38,3.27,0,0
127,Palmer,US,2022-03-26 00:23:20,42.1584,-72.3287,Clouds,broken clouds,53.15,61,75,10.36,0,0
128,Lincoln,US,2022-03-26 00:20:07,40.8,-96.667,Clear,clear sky,55.31,22,0,16.11,0,0
129,Progreso,MX,2022-03-26 00:23:20,21.2833,-89.6667,Clouds,broken clouds,74.1,52,84,12.44,0,0
130,Pevek,RU,2022-03-26 00:23:21,69.7008,170.3133,Clouds,overcast clouds,-4.45,87,92,2.71,0,0
131,Nanortalik,GL,2022-03-26 00:23:21,60.1432,-45.2371,Clouds,few clouds,26.87,83,23,3.76,0,0
132,Jacqueville,CI,2022-03-26 00:23:22,5.2052,-4.4146,Rain,light rain,80.76,88,78,10.54,0,0
133,Abrau-Dyurso,RU,2022-03-26 00:23:22,44.69,37.59,Clouds,overcast clouds,38.66,88,96,7.14,0,0
134,Mitsamiouli,KM,2022-03-26 00:23:22,-11.3847,43.2844,Clouds,broken clouds,81.75,76,60,5.61,0,0
135,Husavik,IS,2022-03-26 00:23:23,66.0449,-17.3389,Clouds,overcast clouds,37.83,84,100,12.86,0,0
136,Azul,AR,2022-03-26 00:23:23,-36.777,-59.8585,Clouds,overcast clouds,62.35,94,100,15.39,0,0
137,Sibolga,ID,2022-03-26 00:23:23,1.7427,98.7792,Clear,clear sky,75.2,80,4,3.85,0,0
138,Castro,BR,2022-03-26 00:23:24,-24.7911,-50.0119,Clouds,overcast clouds,62.04,97,100,3.71,0,0
139,Harlingen,US,2022-03-26 00:23:24,26.1906,-97.6961,Clear,clear sky,86.09,17,0,13.8,0,0
140,Georgetown,MY,2022-03-26 00:20:51,5.4112,100.3354,Clouds,few clouds,78.73,92,20,1.14,0,0
141,Oum Hadjer,TD,2022-03-26 00:23:25,13.2954,19.6966,Clouds,scattered clouds,77.63,13,44,11.9,0,0
142,Harper,LR,2022-03-26 00:23:25,4.375,-7.7169,Rain,moderate rain,79.03,87,99,4.0,0,0
143,Jackson,US,2022-03-26 00:21:50,42.4165,-122.8345,Clear,clear sky,72.91,24,0,13.8,0,0
144,Dzhuryn,UA,2022-03-26 00:23:26,49.0329,25.5839,Clouds,few clouds,39.54,68,22,7.58,0,0
145,Portland,US,2022-03-26 00:21:58,45.5234,-122.6762,Clouds,scattered clouds,64.78,41,40,8.01,0,0
146,Wanning,CN,2022-03-26 00:23:27,18.8003,110.3967,Clouds,scattered clouds,80.08,87,37,9.51,0,0
147,Orel,RU,2022-03-26 00:23:27,52.9658,36.0803,Clouds,overcast clouds,31.75,98,91,9.57,0,0
148,Krasnovishersk,RU,2022-03-26 00:23:28,60.4078,57.082,Clouds,overcast clouds,5.32,98,90,3.98,0,0
149,Shiyan,CN,2022-03-26 00:23:28,32.6475,110.7781,Clouds,overcast clouds,54.14,56,100,3.62,0,0
150,Funtua,NG,2022-03-26 00:23:28,11.5233,7.3081,Clouds,scattered clouds,72.01,19,38,9.08,0,0
151,Kismayo,SO,2022-03-26 00:23:29,-0.3582,42.5454,Clear,clear sky,81.09,83,6,8.59,0,0
152,Guarapari,BR,2022-03-26 00:19:24,-20.6667,-40.4975,Clouds,broken clouds,78.89,92,80,10.87,0,0
153,Nikolayevka,RU,2022-03-26 00:23:30,53.1257,47.2041,Clouds,overcast clouds,30.76,92,96,4.59,0,0
154,Souillac,MU,2022-03-26 00:23:30,-20.5167,57.5167,Clouds,scattered clouds,75.58,100,40,4.61,0,0
155,Salalah,OM,2022-03-26 00:22:22,17.0151,54.0924,Clear,clear sky,73.49,64,0,3.44,0,0
156,Koutsouras,GR,2022-03-26 00:23:31,35.0339,25.9469,Clear,clear sky,57.07,60,0,3.6,0,0
157,Mezen,RU,2022-03-26 00:23:31,65.8522,44.24,Clouds,overcast clouds,13.15,96,99,6.08,0,0
158,Coquimbo,CL,2022-03-26 00:23:32,-29.9533,-71.3436,Clear,clear sky,61.29,85,5,1.54,0,0
159,Jiazi,CN,2022-03-26 00:23:32,22.8779,116.067,Clouds,scattered clouds,75.15,95,50,9.13,0,0
160,Cuxhaven,DE,2022-03-26 00:23:33,53.8718,8.6909,Clouds,scattered clouds,44.1,83,28,8.77,0,0
161,Bourail,NC,2022-03-26 00:23:33,-21.5667,165.4833,Clouds,broken clouds,81.41,67,84,3.69,0,0
162,Vestmannaeyjar,IS,2022-03-26 00:23:33,63.4427,-20.2734,Clouds,overcast clouds,40.17,87,100,34.2,0,0
163,Fukue,JP,2022-03-26 00:23:34,32.6881,128.8419,Clouds,broken clouds,64.76,94,75,12.66,0,0
164,Xining,CN,2022-03-26 00:23:35,36.6167,101.7667,Clouds,overcast clouds,30.45,68,91,2.19,0,0
165,Kinsale,IE,2022-03-26 00:23:35,51.7075,-8.5306,Clouds,few clouds,49.37,66,20,9.22,0,0
166,Marsh Harbour,BS,2022-03-26 00:23:36,26.5412,-77.0636,Clouds,overcast clouds,71.33,63,100,15.99,0,0
167,Riyadh,SA,2022-03-26 00:18:51,24.6877,46.7219,Clear,clear sky,60.94,21,0,6.4,0,0
168,Nikolskoye,RU,2022-03-26 00:23:36,59.7035,30.7861,Clouds,overcast clouds,40.87,92,98,14.0,0,0
169,Bettiah,IN,2022-03-26 00:23:37,26.8,84.5,Clear,clear sky,68.27,18,0,8.19,0,0
170,Lumut,MY,2022-03-26 00:23:37,4.2323,100.6298,Clouds,few clouds,77.02,88,20,0.0,0,0
171,Redlands,US,2022-03-26 00:23:37,34.0556,-117.1825,Clouds,overcast clouds,90.72,26,98,7.92,0,0
172,Qasigiannguit,GL,2022-03-26 00:23:38,68.8193,-51.1922,Clouds,overcast clouds,17.85,92,100,4.09,0,0
173,Severo-Kurilsk,RU,2022-03-26 00:23:38,50.6789,156.125,Clouds,broken clouds,31.82,78,53,15.68,0,0
174,Zabolotovka,RU,2022-03-26 00:23:39,50.2737,39.3147,Clouds,overcast clouds,21.69,98,87,3.91,0,0
175,Shar,KZ,2022-03-26 00:23:39,49.5886,81.0453,Clear,clear sky,19.26,87,7,13.38,0,0
176,Urumqi,CN,2022-03-26 00:23:40,43.801,87.6005,Clear,clear sky,32.95,60,0,2.24,0,0
177,Shalakusha,RU,2022-03-26 00:23:40,62.2247,40.2539,Snow,snow,28.67,96,100,12.01,0,0
178,Kahului,US,2022-03-26 00:23:41,20.8947,-156.47,Clouds,scattered clouds,82.42,64,40,25.32,0,0
179,Chapais,CA,2022-03-26 00:23:41,49.7834,-74.8492,Clouds,overcast clouds,31.78,98,100,6.62,0,0
180,Chokurdakh,RU,2022-03-26 00:23:42,70.6333,147.9167,Snow,light snow,2.03,96,100,14.38,0,0
181,Snezhnogorsk,RU,2022-03-26 00:23:42,69.1933,33.2531,Clouds,overcast clouds,19.18,75,100,14.92,0,0
182,Ahipara,NZ,2022-03-26 00:23:42,-35.1667,173.1667,Clouds,overcast clouds,70.27,65,87,11.72,0,0
183,Stavrovo,RU,2022-03-26 00:23:43,56.1331,40.013,Clouds,overcast clouds,35.31,100,100,11.48,0,0
184,Verkhnyaya Sinyachikha,RU,2022-03-26 00:23:43,57.976,61.6673,Clear,clear sky,15.51,93,9,3.02,0,0
185,Pierre,US,2022-03-26 00:20:37,44.3683,-100.351,Clear,clear sky,52.72,29,0,19.57,0,0
186,Tucuman,AR,2022-03-26 00:18:59,-26.8241,-65.2226,Clear,clear sky,59.0,82,0,5.75,0,0
187,Puerto Leguizamo,CO,2022-03-26 00:23:44,-0.1934,-74.7819,Clouds,overcast clouds,75.2,95,100,2.39,0,0
188,Los Llanos De Aridane,ES,2022-03-26 00:23:44,28.6585,-17.9182,Clouds,broken clouds,58.75,84,75,3.44,0,0
189,Guanica,PR,2022-03-26 00:23:45,17.9716,-66.908,Clear,clear sky,78.06,76,8,11.81,0,0
190,Boralday,KZ,2022-03-26 00:23:45,43.3578,76.8594,Mist,mist,35.46,93,75,6.71,0,0
191,Eqbaliyeh,IR,2022-03-26 00:23:45,35.3022,51.5358,Clear,clear sky,51.62,28,0,19.28,0,0
192,Anshun,CN,2022-03-26 00:23:46,26.25,105.9333,Clouds,overcast clouds,51.66,76,100,9.28,0,0
193,Airai,TL,2022-03-26 00:23:46,-8.9266,125.4092,Clouds,scattered clouds,67.5,76,44,1.83,0,0
194,Seguela,CI,2022-03-26 00:23:47,7.9611,-6.6731,Rain,moderate rain,71.82,92,93,2.66,0,0
195,Toamasina,MG,2022-03-26 00:23:47,-18.1667,49.3833,Clouds,broken clouds,77.0,94,75,2.3,0,0
196,Poum,NC,2022-03-26 00:23:47,-20.2333,164.0167,Clouds,overcast clouds,81.48,72,96,11.39,0,0
197,Fortuna,US,2022-03-26 00:23:48,40.5982,-124.1573,Clear,clear sky,60.85,73,0,18.41,0,0
198,Hov,NO,2022-03-26 00:23:48,60.6987,10.3519,Clouds,broken clouds,32.05,96,81,3.4,0,0
199,Christchurch,NZ,2022-03-26 00:23:48,-43.5333,172.6333,Clear,clear sky,70.41,57,2,8.05,0,0
200,Vila,PT,2022-03-26 00:23:49,42.0304,-8.1588,Clouds,overcast clouds,52.68,75,98,7.29,0,0
201,Mtsamboro,YT,2022-03-26 00:23:49,-12.6998,45.0689,Clouds,broken clouds,79.92,76,65,7.09,0,0
202,Brigantine,US,2022-03-26 00:19:38,39.4101,-74.3646,Clouds,broken clouds,56.01,50,75,6.91,0,0
203,Luau,AO,2022-03-26 00:23:50,-10.7073,22.2247,Clouds,overcast clouds,65.12,95,99,1.19,0,0
204,Pangnirtung,CA,2022-03-26 00:23:50,66.1451,-65.7125,Clouds,overcast clouds,13.03,90,100,5.08,0,0
205,Karratha,AU,2022-03-26 00:23:51,-20.7377,116.8463,Clouds,scattered clouds,85.05,69,25,9.53,0,0
206,Mersing,MY,2022-03-26 00:23:51,2.4312,103.8405,Clouds,scattered clouds,75.11,94,40,5.75,0,0
207,Tias,ES,2022-03-26 00:23:52,28.9611,-13.645,Clouds,few clouds,56.88,77,20,3.44,0,0
208,Port Elizabeth,ZA,2022-03-26 00:23:52,-33.918,25.5701,Clear,clear sky,62.31,88,0,4.61,0,0
209,Elizabeth City,US,2022-03-26 00:21:25,36.2946,-76.2511,Clouds,overcast clouds,61.02,73,100,4.61,0,0
210,Manali,IN,2022-03-26 00:23:53,13.1667,80.2667,Clouds,few clouds,82.49,88,13,9.22,0,0
211,Buraydah,SA,2022-03-26 00:23:53,26.326,43.975,Clear,clear sky,57.65,24,0,16.64,0,0
212,Bambanglipuro,ID,2022-03-26 00:23:54,-7.95,110.2833,Clouds,broken clouds,78.96,84,72,2.59,0,0
213,Bambous Virieux,MU,2022-03-26 00:23:54,-20.3428,57.7575,Rain,light rain,77.22,100,40,4.61,0,0
214,Eyl,SO,2022-03-26 00:23:54,7.9803,49.8164,Clouds,overcast clouds,75.7,72,86,9.33,0,0
215,Talnakh,RU,2022-03-26 00:23:55,69.4865,88.3972,Clouds,overcast clouds,13.21,80,100,9.13,0,0
216,Watsa,CD,2022-03-26 00:23:55,3.0372,29.5355,Clouds,overcast clouds,66.67,74,96,3.09,0,0
217,Khatanga,RU,2022-03-26 00:23:56,71.9667,102.5,Clouds,overcast clouds,-21.17,100,89,4.72,0,0
218,Torbay,CA,2022-03-26 00:23:56,47.6666,-52.7314,Clouds,overcast clouds,30.58,83,100,6.91,0,0
219,Hithadhoo,MV,2022-03-26 00:23:56,-0.6,73.0833,Clouds,few clouds,83.08,69,23,13.22,0,0
220,Sinjar,IQ,2022-03-26 00:23:57,36.3209,41.8754,Clouds,broken clouds,43.9,80,57,6.24,0,0
221,Iqaluit,CA,2022-03-26 00:23:57,63.7506,-68.5145,Snow,light snow,20.93,92,100,23.02,0,0
222,Sohag,EG,2022-03-26 00:23:58,26.557,31.6948,Clear,clear sky,53.65,44,0,9.26,0,0
223,Chuy,UY,2022-03-26 00:23:58,-33.6971,-53.4616,Clouds,broken clouds,58.35,91,73,9.24,0,0
224,Faanui,PF,2022-03-26 00:23:58,-16.4833,-151.75,Clouds,overcast clouds,82.53,71,85,13.38,0,0
225,Haines Junction,CA,2022-03-26 00:23:59,60.7522,-137.5108,Clouds,overcast clouds,40.95,48,99,9.22,0,0
226,Namibe,AO,2022-03-26 00:23:59,-15.1961,12.1522,Clouds,broken clouds,72.16,80,77,8.9,0,0
227,Tacuarembo,UY,2022-03-26 00:24:00,-31.7333,-55.9833,Clouds,broken clouds,61.63,79,84,15.37,0,0
228,Pulau Sebang,MY,2022-03-26 00:24:01,2.455,102.2329,Clouds,broken clouds,78.42,91,66,2.84,0,0
229,Bertoua,CM,2022-03-26 00:24:01,4.5833,13.6833,Clouds,broken clouds,70.23,63,59,3.4,0,0
230,Hami,CN,2022-03-26 00:24:02,42.8,93.45,Clouds,scattered clouds,36.41,37,41,9.44,0,0
231,Bhabua,IN,2022-03-26 00:24:02,25.05,83.6167,Clear,clear sky,73.62,17,4,3.94,0,0
232,Pringsewu,ID,2022-03-26 00:24:03,-5.3582,104.9744,Clouds,scattered clouds,75.49,95,31,2.06,0,0
233,Nantucket,US,2022-03-26 00:24:03,41.2835,-70.0995,Clear,clear sky,44.71,92,0,9.22,0,0
234,Korla,CN,2022-03-26 00:24:03,41.7597,86.1469,Clouds,scattered clouds,40.42,65,48,4.94,0,0
235,Cedar City,US,2022-03-26 00:24:04,37.6775,-113.0619,Clear,clear sky,72.57,14,0,12.66,0,0
236,Gamba,GA,2022-03-26 00:24:04,-2.65,10.0,Rain,moderate rain,78.13,90,100,7.31,0,0
237,Thompson,CA,2022-03-26 00:24:05,55.7435,-97.8558,Clouds,broken clouds,3.36,60,75,19.57,0,0
238,Hokitika,NZ,2022-03-26 00:24:05,-42.7167,170.9667,Clouds,few clouds,67.41,46,21,5.08,0,0
239,Vung Tau,VN,2022-03-26 00:21:01,10.346,107.0843,Clear,clear sky,82.06,75,2,6.29,0,0
240,Dicabisagan,PH,2022-03-26 00:24:05,17.0818,122.4157,Clouds,few clouds,82.49,74,12,4.23,0,0
241,Gouyave,GD,2022-03-26 00:24:06,12.1646,-61.7296,Clouds,scattered clouds,77.94,78,30,19.39,0,0
242,Kargasok,RU,2022-03-26 00:24:06,59.0556,80.8572,Clouds,overcast clouds,17.08,85,100,18.39,0,0
243,Grand Gaube,MU,2022-03-26 00:24:07,-20.0064,57.6608,Clear,clear sky,77.38,87,4,11.25,0,0
244,Mangaratiba,BR,2022-03-26 00:23:08,-22.9597,-44.0406,Clouds,broken clouds,78.03,81,77,2.68,0,0
245,Vagur,FO,2022-03-26 00:24:08,61.4732,-6.8119,Clouds,overcast clouds,45.46,96,100,8.59,0,0
246,Rouvroy,FR,2022-03-26 00:24:08,50.3925,2.904,Clear,clear sky,48.07,67,3,7.96,0,0
247,Kaitangata,NZ,2022-03-26 00:24:08,-46.2817,169.8464,Clouds,broken clouds,62.74,68,79,6.8,0,0
248,Grindavik,IS,2022-03-26 00:24:09,63.8424,-22.4338,Drizzle,drizzle,43.27,100,100,25.32,0,0
249,Sioux Lookout,CA,2022-03-26 00:24:09,50.1001,-91.917,Clouds,overcast clouds,17.67,86,100,13.8,0,0
250,Vao,NC,2022-03-26 00:24:10,-22.6667,167.4833,Clouds,broken clouds,77.31,66,82,13.44,0,0
251,Katsuura,JP,2022-03-26 00:24:10,35.1333,140.3,Clouds,overcast clouds,61.34,79,100,24.0,0,0
252,Cayenne,GF,2022-03-26 00:24:11,4.9333,-52.3333,Clouds,broken clouds,81.09,1,75,13.8,0,0
253,Phetchabun,TH,2022-03-26 00:24:11,16.25,101.0833,Clouds,scattered clouds,75.47,72,44,2.35,0,0
254,Nikolayevsk-Na-Amure,RU,2022-03-26 00:24:12,53.1406,140.73,Clouds,broken clouds,27.95,96,81,1.21,0,0
255,Mao,ES,2022-03-26 00:24:12,39.8885,4.2658,Rain,light rain,55.96,88,100,19.57,0,0
256,Pacific Grove,US,2022-03-26 00:24:13,36.6177,-121.9166,Clear,clear sky,69.55,78,0,10.36,0,0
257,Kutum,SD,2022-03-26 00:24:13,14.2,24.6667,Clouds,scattered clouds,60.22,16,43,13.13,0,0
258,San Ramon,US,2022-03-26 00:23:48,37.7799,-121.978,Clear,clear sky,77.52,47,0,12.66,0,0
259,Kenai,US,2022-03-26 00:24:14,60.5544,-151.2583,Clouds,broken clouds,45.03,55,75,12.66,0,0
260,Provideniya,RU,2022-03-26 00:24:14,64.3833,-173.3,Clouds,scattered clouds,16.48,78,38,3.31,0,0
261,Noyabrsk,RU,2022-03-26 00:24:14,63.1994,75.4507,Snow,light snow,8.74,92,100,35.75,0,0
262,Burnie,AU,2022-03-26 00:24:15,-41.0667,145.9167,Clouds,scattered clouds,63.73,74,35,6.98,0,0
263,Yulara,AU,2022-03-26 00:24:15,-25.2406,130.9889,Clear,clear sky,76.84,31,0,18.41,0,0
264,Port Lincoln,AU,2022-03-26 00:24:15,-34.7333,135.8667,Clear,clear sky,66.52,67,0,12.55,0,0
265,Vallenar,CL,2022-03-26 00:24:16,-28.5708,-70.7581,Clear,clear sky,66.74,61,0,3.22,0,0
266,Aripuana,BR,2022-03-26 00:24:16,-9.1667,-60.6333,Clouds,broken clouds,74.73,96,59,0.72,0,0
267,Rosario,AR,2022-03-26 00:24:17,-32.9468,-60.6393,Clouds,few clouds,63.07,82,20,14.97,0,0
268,Aguimes,ES,2022-03-26 00:24:17,27.9054,-15.4461,Clouds,few clouds,58.66,67,20,5.75,0,0
269,Ugoofaaru,MV,2022-03-26 00:24:17,5.6667,73.0,Clear,clear sky,81.36,65,5,5.37,0,0
270,Svetlogorsk,BY,2022-03-26 00:24:18,52.6333,29.7333,Clouds,scattered clouds,40.6,78,25,10.11,0,0
271,Cabedelo,BR,2022-03-26 00:24:18,-6.9811,-34.8339,Rain,moderate rain,77.67,82,98,9.91,0,0
272,Luganville,VU,2022-03-26 00:24:19,-15.5333,167.1667,Clouds,broken clouds,86.0,68,79,3.98,0,0
273,Tondano,ID,2022-03-26 00:24:19,1.3038,124.9112,Clouds,overcast clouds,77.09,72,100,2.53,0,0
274,Catabola,AO,2022-03-26 00:24:19,-12.15,17.2833,Rain,light rain,61.16,90,58,3.13,0,0
275,Roald,NO,2022-03-26 00:24:20,62.5833,6.1333,Clouds,few clouds,42.75,81,20,4.61,0,0
276,Presidencia Roque Saenz Pena,AR,2022-03-26 00:20:50,-26.7852,-60.4388,Clear,clear sky,62.74,57,0,3.98,0,0
277,Gonda,IN,2022-03-26 00:22:18,27.1333,81.9333,Clear,clear sky,69.58,18,0,8.03,0,0
278,Sao Filipe,CV,2022-03-26 00:24:20,14.8961,-24.4956,Clouds,few clouds,70.65,73,20,10.27,0,0
279,Pangody,RU,2022-03-26 00:24:21,65.85,74.4859,Clouds,overcast clouds,7.61,93,100,24.05,0,0
280,Arraial Do Cabo,BR,2022-03-26 00:24:21,-22.9661,-42.0278,Clear,clear sky,76.96,94,0,11.5,0,0
281,Valparaiso,CL,2022-03-26 00:23:24,-33.0393,-71.6273,Clear,clear sky,61.48,75,0,2.91,0,0
282,Abu Zabad,SD,2022-03-26 00:24:22,12.35,29.25,Clear,clear sky,67.03,12,3,17.65,0,0
283,Norman Wells,CA,2022-03-26 00:24:22,65.282,-126.8329,Clouds,scattered clouds,12.24,57,40,21.85,0,0
284,Guane,CU,2022-03-26 00:24:23,22.2025,-84.0875,Clouds,overcast clouds,71.37,68,99,12.59,0,0
285,Komarikhinskiy,RU,2022-03-26 00:24:23,58.0979,57.1163,Clouds,scattered clouds,10.56,96,30,2.77,0,0
286,Bathsheba,BB,2022-03-26 00:24:24,13.2167,-59.5167,Clouds,scattered clouds,79.41,69,40,19.57,0,0
287,Saint-Denis,FR,2022-03-26 00:24:24,48.9167,2.3333,Clear,clear sky,53.38,54,0,11.5,0,0
288,Makakilo City,US,2022-03-26 00:24:24,21.3469,-158.0858,Clouds,broken clouds,77.32,65,75,16.11,0,0
289,Galle,LK,2022-03-26 00:24:25,6.0367,80.217,Clear,clear sky,76.73,85,4,2.59,0,0
290,Filadelfia,US,2022-03-26 00:22:38,39.9523,-75.1638,Clouds,overcast clouds,55.06,52,100,8.05,0,0
291,Horn,DE,2022-03-26 00:24:25,51.8715,8.9451,Clear,clear sky,43.05,74,0,2.42,0,0
292,Touros,BR,2022-03-26 00:22:44,-5.1989,-35.4608,Rain,moderate rain,81.01,80,95,13.65,0,0
293,Vila Do Maio,CV,2022-03-26 00:24:26,15.1333,-23.2167,Clouds,scattered clouds,66.99,76,49,11.39,0,0
294,Raudeberg,NO,2022-03-26 00:24:26,61.9875,5.1352,Clouds,overcast clouds,38.07,76,100,14.29,0,0
295,Tabuk,PH,2022-03-26 00:24:26,17.4189,121.4443,Clear,clear sky,78.75,76,4,2.04,0,0
296,Mokhsogollokh,RU,2022-03-26 00:24:27,61.4681,128.9203,Clouds,overcast clouds,12.52,96,100,1.52,0,0
297,Canutama,BR,2022-03-26 00:24:27,-6.5339,-64.3831,Clouds,overcast clouds,75.6,96,90,2.01,0,0
298,Jaciara,BR,2022-03-26 00:24:28,-15.9653,-54.9683,Rain,moderate rain,72.99,95,100,3.15,0,0
299,Okhotsk,RU,2022-03-26 00:24:28,59.3833,143.3,Clouds,scattered clouds,10.76,73,39,13.67,0,0
300,Luanda,AO,2022-03-26 00:20:54,-8.8368,13.2343,Clouds,overcast clouds,79.3,84,97,2.33,0,0
301,Suluq,LY,2022-03-26 00:24:29,31.6682,20.2521,Clear,clear sky,53.38,64,0,5.64,0,0
302,Faya,SA,2022-03-26 00:24:29,18.3851,42.4509,Clear,clear sky,57.31,47,1,1.66,0,0
303,Cabo San Lucas,MX,2022-03-26 00:21:24,22.8909,-109.9124,Clouds,broken clouds,82.62,51,83,3.0,0,0
304,Klaksvik,FO,2022-03-26 00:24:30,62.2266,-6.589,Clouds,overcast clouds,40.12,92,100,19.24,0,0
305,East London,ZA,2022-03-26 00:24:30,-33.0153,27.9116,Rain,light rain,64.0,88,82,1.7,0,0
306,Praia,CV,2022-03-26 00:23:04,14.9215,-23.5087,Clear,clear sky,66.74,72,0,9.22,0,0
307,Camana,PE,2022-03-26 00:24:31,-16.6228,-72.7111,Clouds,few clouds,70.92,80,15,5.77,0,0
308,Price,US,2022-03-26 00:21:52,39.5994,-110.8107,Clear,clear sky,71.11,14,0,5.75,0,0
309,Bayshore Gardens,US,2022-03-26 00:24:31,27.4253,-82.5904,Clear,clear sky,69.98,59,0,11.5,0,0
310,Llangefni,GB,2022-03-26 00:24:32,53.2556,-4.3106,Clear,clear sky,49.12,81,1,4.61,0,0
311,Nivala,FI,2022-03-26 00:23:10,63.9167,24.9667,Snow,light snow,29.68,96,100,10.22,0,0
312,Joshimath,IN,2022-03-26 00:24:32,30.5667,79.5667,Clear,clear sky,46.83,46,6,10.31,0,0
313,Pedernales,DO,2022-03-26 00:24:33,18.0384,-71.744,Clouds,broken clouds,78.46,71,78,13.04,0,0
314,Ambilobe,MG,2022-03-26 00:24:37,-13.2,49.05,Rain,light rain,74.88,94,82,2.55,0,0
315,San Isidro,PE,2022-03-26 00:24:37,-12.1167,-77.05,Clear,clear sky,70.5,72,0,5.75,0,0
316,Esperance,AU,2022-03-26 00:24:38,-33.8667,121.9,Clouds,overcast clouds,71.44,60,100,15.14,0,0
317,Barcelos,PT,2022-03-26 00:24:38,41.5388,-8.6151,Clouds,overcast clouds,58.91,86,92,4.25,0,0
318,Nome,US,2022-03-26 00:24:38,64.5011,-165.4064,Clear,clear sky,24.87,74,0,8.05,0,0
319,Khandyga,RU,2022-03-26 00:24:39,62.6667,135.6,Clouds,broken clouds,5.88,91,83,1.68,0,0
320,Barzas,RU,2022-03-26 00:24:39,55.7167,86.3167,Snow,light snow,25.72,92,100,16.69,0,0
321,Lanas,PH,2022-03-26 00:24:39,12.0495,121.9185,Clouds,few clouds,83.1,74,12,17.54,0,0
322,Bend,US,2022-03-26 00:24:40,44.0582,-121.3153,Clear,clear sky,68.14,30,0,9.22,0,0
323,Alyangula,AU,2022-03-26 00:24:40,-13.8483,136.4192,Clouds,broken clouds,85.87,62,66,10.36,0,0
324,Kurchum,KZ,2022-03-26 00:24:41,48.5722,83.6542,Clear,clear sky,12.78,80,3,4.47,0,0
325,Victor Harbor,AU,2022-03-26 00:24:41,-35.5667,138.6167,Clear,clear sky,64.0,75,0,7.14,0,0
326,Atambua,ID,2022-03-26 00:24:41,-9.1061,124.8925,Clouds,scattered clouds,77.81,80,29,0.98,0,0
327,Mananjary,MG,2022-03-26 00:24:42,-21.2167,48.3333,Rain,light rain,76.01,93,9,5.77,0,0
328,Avera,US,2022-03-26 00:24:42,33.194,-82.5271,Clouds,few clouds,58.51,53,23,13.89,0,0
329,Te Anau,NZ,2022-03-26 00:24:43,-45.4167,167.7167,Clouds,scattered clouds,64.24,60,39,1.03,0,0
330,College,US,2022-03-26 00:24:43,64.8569,-147.8028,Clouds,broken clouds,43.12,39,75,5.75,0,0
331,Yambio,SS,2022-03-26 00:24:43,4.5721,28.3955,Clouds,scattered clouds,68.22,73,35,4.79,0,0
332,Neiafu,TO,2022-03-26 00:24:44,-18.65,-173.9833,Clouds,overcast clouds,79.48,94,100,4.61,0,0
333,Susangerd,IR,2022-03-26 00:24:44,31.5608,48.1831,Clear,clear sky,58.66,28,0,8.7,0,0
334,Yar-Sale,RU,2022-03-26 00:24:45,66.8333,70.8333,Clouds,broken clouds,-4.76,96,71,11.25,0,0
335,Port-Cartier,CA,2022-03-26 00:24:45,50.0334,-66.8654,Snow,snow,26.82,96,100,23.98,0,0
336,Kupino,RU,2022-03-26 00:24:45,54.3663,77.2981,Snow,light snow,23.95,86,100,16.46,0,0
337,Talara,PE,2022-03-26 00:24:46,-4.5772,-81.2719,Clouds,scattered clouds,72.59,79,50,13.15,0,0
338,General Roca,AR,2022-03-26 00:24:46,-39.0333,-67.5833,Clear,clear sky,64.92,27,8,7.9,0,0
339,Mustasaari,FI,2022-03-26 00:24:47,63.1142,21.6822,Clear,clear sky,35.55,75,0,11.5,0,0
340,Ngaoundere,CM,2022-03-26 00:24:47,7.3167,13.5833,Clouds,overcast clouds,71.64,27,100,3.04,0,0
341,Carutapera,BR,2022-03-26 00:24:47,-1.195,-46.02,Clouds,overcast clouds,76.03,92,93,5.57,0,0
342,Ouesso,CG,2022-03-26 00:24:48,1.6136,16.0517,Clouds,scattered clouds,70.84,86,29,1.83,0,0
343,Bose,IT,2022-03-26 00:24:48,45.4612,8.0137,Clear,clear sky,51.3,37,0,4.43,0,0
344,Kushiro,JP,2022-03-26 00:24:49,42.975,144.3747,Clouds,broken clouds,38.35,93,75,5.75,0,0
345,Erdenet,MN,2022-03-26 00:24:49,49.0333,104.0833,Clear,clear sky,16.16,54,1,5.03,0,0
346,Sibu,MY,2022-03-26 00:24:50,2.3,111.8167,Clouds,scattered clouds,73.71,100,40,3.44,0,0
347,Boa Vista,BR,2022-03-26 00:24:50,2.8197,-60.6733,Clouds,broken clouds,78.78,89,75,4.61,0,0
348,Fairbanks,US,2022-03-26 00:20:23,64.8378,-147.7164,Clouds,broken clouds,44.94,39,75,5.75,0,0
349,Gizo,SB,2022-03-26 00:24:51,-8.103,156.8419,Rain,moderate rain,83.93,70,77,3.33,0,0
350,Filingue,NE,2022-03-26 00:24:51,14.3521,3.3168,Clear,clear sky,83.1,13,5,11.72,0,0
351,Carangola,BR,2022-03-26 00:24:51,-20.7331,-42.0294,Clouds,broken clouds,70.38,94,72,4.16,0,0
352,Ayia Trias,GR,2022-03-26 00:24:52,38.35,22.9167,Clear,clear sky,49.12,64,0,2.13,0,0
353,Bengkulu,ID,2022-03-26 00:24:52,-3.8004,102.2655,Clouds,scattered clouds,76.73,82,36,4.07,0,0
354,Vanimo,PG,2022-03-26 00:24:52,-2.6741,141.3028,Clouds,overcast clouds,80.64,81,100,3.51,0,0
355,Lensk,RU,2022-03-26 00:24:53,60.7253,114.9278,Clouds,overcast clouds,15.82,91,100,1.23,0,0
356,Meulaboh,ID,2022-03-26 00:24:53,4.1363,96.1285,Clouds,broken clouds,76.05,91,52,4.52,0,0
357,Marga,RO,2022-03-26 00:24:54,45.5,22.5167,Clouds,scattered clouds,38.8,70,27,3.74,0,0
358,Longyearbyen,SJ,2022-03-26 00:20:03,78.2186,15.6401,Clouds,few clouds,-0.56,78,20,2.3,0,0
359,Socorro,US,2022-03-26 00:24:54,31.6546,-106.3033,Clouds,scattered clouds,81.61,8,40,3.44,0,0
360,Columbus,US,2022-03-26 00:24:55,39.9612,-82.9988,Clouds,overcast clouds,43.65,87,100,19.57,0,0
361,Ardakan,IR,2022-03-26 00:24:55,32.31,54.0175,Clear,clear sky,62.65,15,0,17.65,0,0
362,Kalmunai,LK,2022-03-26 00:24:55,7.4167,81.8167,Clear,clear sky,76.64,86,8,6.76,0,0
363,Concordia,AR,2022-03-26 00:24:56,-31.393,-58.0209,Clouds,overcast clouds,62.78,84,90,5.99,0,0
364,Saint-Pierre,RE,2022-03-26 00:24:56,-21.3393,55.4781,Clear,clear sky,74.28,78,0,4.61,0,0
365,Bilibino,RU,2022-03-26 00:24:57,68.0546,166.4372,Clouds,overcast clouds,5.36,89,100,7.38,0,0
366,Ostrovnoy,RU,2022-03-26 00:21:10,68.0531,39.5131,Snow,light snow,23.0,93,100,17.4,0,0
367,San Cristobal,VE,2022-03-26 00:24:57,7.7669,-72.225,Clouds,overcast clouds,75.38,70,91,3.11,0,0
368,Nerchinskiy Zavod,RU,2022-03-26 00:24:58,51.3088,119.61,Clouds,overcast clouds,21.43,91,99,3.31,0,0
369,Tessalit,ML,2022-03-26 00:24:58,20.1986,1.0114,Clouds,overcast clouds,87.51,12,95,8.41,0,0
370,Pata,PH,2022-03-26 00:24:59,17.7152,121.5018,Clear,clear sky,79.25,76,1,2.68,0,0
371,Niederkassel,DE,2022-03-26 00:24:59,50.8167,7.0333,Clear,clear sky,50.97,60,0,1.14,0,0
372,Buluang,PH,2022-03-26 00:24:59,13.3068,123.3425,Clouds,few clouds,82.45,75,13,2.93,0,0
373,Bom Jesus,BR,2022-03-26 00:25:00,-9.0744,-44.3586,Clouds,scattered clouds,79.36,57,43,2.19,0,0
374,Daska,PK,2022-03-26 00:25:00,32.3243,74.3497,Clear,clear sky,62.58,36,0,5.48,0,0
375,Monrovia,LR,2022-03-26 00:21:11,6.3005,-10.7969,Rain,moderate rain,78.57,86,44,6.62,0,0
376,Vidim,RU,2022-03-26 00:25:01,56.4088,103.1106,Clouds,overcast clouds,11.88,99,99,3.8,0,0
377,Gouria,GR,2022-03-26 00:25:01,38.4667,21.2667,Clear,clear sky,41.05,80,1,4.23,0,0
378,Alice Springs,AU,2022-03-26 00:24:27,-23.7,133.8833,Clouds,broken clouds,74.75,32,75,14.97,0,0
379,Mocuba,MZ,2022-03-26 00:25:01,-16.8392,36.9856,Clouds,scattered clouds,72.01,98,36,3.22,0,0
380,Clifton Springs,AU,2022-03-26 00:25:02,-38.15,144.5667,Clouds,scattered clouds,66.94,72,40,6.91,0,0
381,Peterhead,GB,2022-03-26 00:25:03,57.5058,-1.7981,Clouds,scattered clouds,43.2,82,46,2.15,0,0
382,Coro,VE,2022-03-26 00:25:04,11.4045,-69.6734,Clouds,broken clouds,78.01,81,63,19.89,0,0
383,Deep River,CA,2022-03-26 00:25:08,46.1001,-77.4995,Clouds,overcast clouds,38.95,98,100,5.79,0,0
384,Shache,CN,2022-03-26 00:25:08,38.4167,77.2406,Clear,clear sky,44.35,55,3,0.94,0,0
385,Yunhe,CN,2022-03-26 00:25:09,34.0833,119.7167,Clouds,overcast clouds,49.96,67,98,14.18,0,0
386,San Juan Evangelista,MX,2022-03-26 00:25:09,17.9,-95.1333,Clouds,overcast clouds,75.29,44,98,11.77,0,0
387,Flinders,AU,2022-03-26 00:25:09,-34.5833,150.8552,Rain,light rain,73.38,79,69,4.0,0,0
388,Warrnambool,AU,2022-03-26 00:25:10,-38.3833,142.4833,Clear,clear sky,68.81,73,6,4.88,0,0
389,Porbandar,IN,2022-03-26 00:25:10,21.6422,69.6093,Clear,clear sky,77.77,60,8,6.33,0,0
390,Tolentino,IT,2022-03-26 00:25:10,43.2126,13.2901,Clouds,broken clouds,52.75,63,69,4.09,0,0
391,Shingu,JP,2022-03-26 00:25:11,33.7333,135.9833,Rain,moderate rain,61.88,86,100,12.77,0,0
392,Grimstad,NO,2022-03-26 00:25:11,58.3405,8.5934,Clouds,overcast clouds,48.11,74,100,16.46,0,0
393,Edgewater,US,2022-03-26 00:25:02,28.9889,-80.9023,Clouds,few clouds,69.82,49,20,14.97,0,0
394,Balakhta,RU,2022-03-26 00:25:12,55.38,91.6,Clouds,overcast clouds,21.09,84,100,9.06,0,0
395,Sebinkarahisar,TR,2022-03-26 00:25:12,40.2883,38.4236,Clouds,broken clouds,19.65,78,56,4.76,0,0
396,Cravo Norte,CO,2022-03-26 00:25:12,6.3017,-70.2041,Clouds,overcast clouds,88.18,45,94,6.76,0,0
397,Fort Saint James,CA,2022-03-26 00:25:13,54.4333,-124.25,Clouds,overcast clouds,38.68,66,100,1.74,0,0
398,Puno,PE,2022-03-26 00:23:37,-15.8333,-70.0333,Clouds,broken clouds,48.47,82,57,5.66,0,0
399,Menongue,AO,2022-03-26 00:21:14,-14.6585,17.691,Clouds,broken clouds,62.31,90,65,0.31,0,0
400,Port Augusta,AU,2022-03-26 00:25:14,-32.5,137.7667,Clear,clear sky,70.97,32,0,6.49,0,0
401,Ontario,US,2022-03-26 00:21:08,34.0633,-117.6509,Clouds,broken clouds,90.88,33,75,17.27,0,0
402,Ancud,CL,2022-03-26 00:25:14,-41.8697,-73.8203,Clouds,overcast clouds,58.23,90,100,0.98,0,0
403,Turayf,SA,2022-03-26 00:25:15,31.6725,38.6637,Clear,clear sky,35.85,100,0,4.61,0,0
404,Vila Velha,BR,2022-03-26 00:25:15,-20.3297,-40.2925,Clouds,few clouds,78.94,88,20,7.0,0,0
405,San Quintin,MX,2022-03-26 00:25:15,30.4833,-115.95,Clouds,broken clouds,67.59,65,65,14.0,0,0
406,Hamilton,US,2022-03-26 00:25:16,39.1834,-84.5333,Clouds,overcast clouds,44.6,85,100,13.8,0,0
407,Agadir,MA,2022-03-26 00:25:16,30.4202,-9.5982,Clear,clear sky,55.85,79,1,1.1,0,0
408,Asau,RO,2022-03-26 00:25:17,46.4333,26.4,Clear,clear sky,23.92,78,7,5.12,0,0
409,Geraldton,AU,2022-03-26 00:25:17,-28.7667,114.6,Rain,light rain,79.21,78,75,14.97,0,0
410,Sept-Iles,CA,2022-03-26 00:22:54,50.2001,-66.3821,Snow,snow,27.12,96,100,14.97,0,0
411,Lorengau,PG,2022-03-26 00:25:17,-2.0226,147.2712,Clouds,overcast clouds,84.61,70,100,9.86,0,0
412,Lagoa,PT,2022-03-26 00:25:18,39.05,-27.9833,Clouds,overcast clouds,59.76,88,100,32.88,0,0
413,Ca Mau,VN,2022-03-26 00:25:18,9.1769,105.15,Clear,clear sky,81.25,77,0,3.83,0,0
414,Pathein,MM,2022-03-26 00:25:19,16.7833,94.7333,Clear,clear sky,74.01,85,7,5.48,0,0
415,Zhigalovo,RU,2022-03-26 00:25:19,54.8097,105.1578,Snow,light snow,20.66,95,100,3.94,0,0
416,Veraval,IN,2022-03-26 00:25:19,20.9,70.3667,Clouds,broken clouds,76.39,74,72,7.76,0,0
417,Encruzilhada Do Sul,BR,2022-03-26 00:25:20,-30.5439,-52.5219,Clear,clear sky,56.3,73,0,6.44,0,0
418,Alta Floresta,BR,2022-03-26 00:25:20,-9.8756,-56.0861,Clouds,broken clouds,73.4,96,83,1.88,0,0
419,Batticaloa,LK,2022-03-26 00:25:21,7.7102,81.6924,Clear,clear sky,77.14,86,1,7.18,0,0
420,Hvide Sande,DK,2022-03-26 00:25:21,56.0045,8.1294,Clouds,few clouds,45.09,87,18,18.57,0,0
421,Kaifeng,CN,2022-03-26 00:25:21,34.7911,114.3483,Clouds,overcast clouds,49.37,64,95,4.36,0,0
422,Bulgan,MN,2022-03-26 00:25:22,48.8125,103.5347,Clear,clear sky,15.76,64,3,5.19,0,0
423,Tocopilla,CL,2022-03-26 00:25:22,-22.092,-70.1979,Clouds,few clouds,68.16,70,19,6.8,0,0
424,Ferreira Do Alentejo,PT,2022-03-26 00:25:23,38.05,-8.0333,Clouds,few clouds,51.39,93,20,1.14,0,0
425,At-Bashi,KG,2022-03-26 00:25:23,41.1702,75.8106,Clouds,overcast clouds,26.6,63,85,5.64,0,0
426,Silver City,US,2022-03-26 00:25:24,32.7701,-108.2803,Clear,clear sky,72.03,11,0,6.91,0,0
427,Grand-Lahou,CI,2022-03-26 00:25:24,5.1367,-5.0242,Clouds,broken clouds,79.41,90,66,6.93,0,0
428,Ambon,ID,2022-03-26 00:25:24,-3.6954,128.1814,Clouds,few clouds,86.14,74,20,3.44,0,0
429,Namie,JP,2022-03-26 00:25:25,37.4833,141.0,Rain,moderate rain,60.71,83,100,16.91,0,0
430,Cockburn Town,TC,2022-03-26 00:25:25,21.4612,-71.1419,Clouds,broken clouds,78.17,72,56,19.08,0,0
431,Voh,NC,2022-03-26 00:25:25,-20.9667,164.7,Clouds,broken clouds,83.35,69,83,3.8,0,0
432,Lashio,MM,2022-03-26 00:25:26,22.9333,97.75,Clouds,scattered clouds,63.54,59,45,0.92,0,0
433,Thunder Bay,CA,2022-03-26 00:22:05,48.4001,-89.3168,Clouds,broken clouds,32.29,72,75,20.71,0,0
434,Williamsburg,US,2022-03-26 00:24:55,37.2707,-76.7075,Clear,clear sky,59.77,61,0,4.61,0,0
435,Awjilah,LY,2022-03-26 00:25:27,29.1081,21.2869,Clear,clear sky,54.59,34,0,0.16,0,0
436,Sapele,NG,2022-03-26 00:25:27,5.8941,5.6767,Clouds,overcast clouds,79.54,85,99,2.95,0,0
437,Jurado,CO,2022-03-26 00:25:27,7.1053,-77.7641,Clouds,broken clouds,78.06,84,82,0.4,0,0
438,Senador Jose Porfirio,BR,2022-03-26 00:25:28,-2.5908,-51.9542,Clouds,broken clouds,75.74,91,84,2.57,0,0
439,Qingdao,CN,2022-03-26 00:21:35,36.0986,120.3719,Clear,clear sky,46.0,66,0,13.42,0,0
440,Aitape,PG,2022-03-26 00:25:28,-3.1374,142.3475,Clouds,overcast clouds,81.0,80,100,3.89,0,0
441,Luangwa,ZM,2022-03-26 00:25:29,-15.6167,30.4167,Clouds,few clouds,74.23,84,11,0.65,0,0
442,Luena,AO,2022-03-26 00:25:29,-11.7833,19.9167,Clouds,overcast clouds,66.42,85,100,2.95,0,0
443,Kampot,KH,2022-03-26 00:25:29,10.6167,104.1833,Clear,clear sky,78.85,80,10,1.88,0,0
444,Buala,SB,2022-03-26 00:25:30,-8.145,159.5921,Rain,moderate rain,79.16,87,100,7.02,0,0
445,Ust-Ishim,RU,2022-03-26 00:25:30,57.6935,71.1665,Clouds,overcast clouds,12.7,88,100,10.13,0,0
446,Tricase,IT,2022-03-26 00:25:31,39.9304,18.3553,Clouds,few clouds,36.75,56,21,3.98,0,0
447,Aswan,EG,2022-03-26 00:25:31,24.0934,32.907,Clear,clear sky,56.21,36,0,10.92,0,0
448,Hasaki,JP,2022-03-26 00:25:31,35.7333,140.8333,Rain,light rain,61.29,76,100,26.78,0,0
449,Northam,GB,2022-03-26 00:25:32,51.0333,-4.2167,Clouds,scattered clouds,45.61,75,36,6.02,0,0
450,Beaverlodge,CA,2022-03-26 00:25:32,55.2166,-119.4361,Clouds,overcast clouds,33.15,89,100,7.34,0,0
451,Hrinova,SK,2022-03-26 00:25:33,48.5779,19.5257,Clouds,broken clouds,45.39,66,52,2.33,0,0
452,Lingao,CN,2022-03-26 00:25:33,19.9103,109.6859,Clouds,scattered clouds,79.07,75,28,6.55,0,0
453,Zyryanka,RU,2022-03-26 00:25:33,65.75,150.85,Clouds,overcast clouds,9.36,83,100,8.81,0,0
454,Maningrida,AU,2022-03-26 00:25:34,-12.0667,134.2667,Clouds,broken clouds,81.39,73,67,10.58,0,0
455,Marsaxlokk,MT,2022-03-26 00:25:34,35.8419,14.5431,Clear,clear sky,56.08,76,0,11.5,0,0
456,Bac Lieu,VN,2022-03-26 00:25:35,9.285,105.7244,Clear,clear sky,82.54,72,0,5.17,0,0
457,Banjar,ID,2022-03-26 00:25:35,-8.19,114.9675,Clouds,broken clouds,82.09,79,52,1.21,0,0
458,Gat,IL,2022-03-26 00:25:36,31.61,34.7642,Clouds,few clouds,51.4,100,18,5.57,0,0
459,Krasnorechenskiy,RU,2022-03-26 00:25:36,44.6265,135.3532,Snow,snow,34.61,100,100,2.68,0,0
460,Bandarbeyla,SO,2022-03-26 00:25:36,9.4942,50.8122,Clouds,broken clouds,75.13,72,73,4.63,0,0
461,Leningradskiy,RU,2022-03-26 00:25:37,69.3833,178.4167,Clouds,broken clouds,0.28,87,54,7.87,0,0
462,Phichit,TH,2022-03-26 00:25:37,16.25,100.4167,Clouds,broken clouds,86.0,80,61,4.97,0,0
463,Along,IN,2022-03-26 00:25:37,28.1667,94.7667,Clouds,overcast clouds,61.16,98,100,1.97,0,0
464,Kieta,PG,2022-03-26 00:25:38,-6.2167,155.6333,Rain,light rain,82.29,82,87,8.14,0,0
465,Myitkyina,MM,2022-03-26 00:25:38,25.3833,97.4,Clouds,overcast clouds,65.43,85,97,2.01,0,0
466,Namatanai,PG,2022-03-26 00:25:38,-3.6667,152.4333,Rain,light rain,82.9,73,100,5.53,0,0
467,Honningsvag,NO,2022-03-26 00:25:39,70.9821,25.9704,Clouds,broken clouds,26.35,63,75,19.57,0,0
468,Shalya,RU,2022-03-26 00:25:39,57.2471,58.7298,Clouds,scattered clouds,2.12,98,34,2.93,0,0
469,Taoudenni,ML,2022-03-26 00:25:40,22.6783,-3.9836,Clear,clear sky,77.2,16,0,9.82,0,0
470,Ust-Kut,RU,2022-03-26 00:25:40,56.7938,105.7672,Clouds,broken clouds,9.57,96,77,2.44,0,0
471,Nurota,UZ,2022-03-26 00:25:40,40.5614,65.6886,Clouds,overcast clouds,56.93,52,86,11.27,0,0
472,Khromtau,KZ,2022-03-26 00:25:41,50.2503,58.4347,Clouds,overcast clouds,24.98,95,100,5.21,0,0
473,Bukama,CD,2022-03-26 00:25:41,-9.2,25.85,Rain,light rain,69.62,96,82,2.75,0,0
474,Bontang,ID,2022-03-26 00:25:41,0.1333,117.5,Clouds,broken clouds,78.89,82,56,2.95,0,0
475,Humberto De Campos,BR,2022-03-26 00:25:42,-2.5983,-43.4611,Clouds,broken clouds,75.99,93,71,4.36,0,0
476,Huarmey,PE,2022-03-26 00:25:42,-10.0681,-78.1522,Clouds,broken clouds,72.07,78,82,9.24,0,0
477,Rauma,FI,2022-03-26 00:25:42,61.1272,21.5113,Rain,light rain,37.44,69,52,26.28,0,0
478,Longuenesse,FR,2022-03-26 00:25:43,50.734,2.2352,Clear,clear sky,49.42,77,4,5.37,0,0
479,Tuatapere,NZ,2022-03-26 00:25:43,-46.1333,167.6833,Clouds,broken clouds,62.15,71,81,6.35,0,0
480,Kununurra,AU,2022-03-26 00:25:44,-15.7667,128.7333,Clouds,broken clouds,85.98,74,75,6.91,0,0
481,Shuyskoye,RU,2022-03-26 00:25:48,59.3736,41.0305,Snow,light snow,32.18,98,99,12.39,0,0
482,Port Macquarie,AU,2022-03-26 00:22:50,-31.4333,152.9167,Rain,light rain,66.09,94,75,6.91,0,0
483,Dunedin,NZ,2022-03-26 00:25:48,-45.8742,170.5036,Clouds,broken clouds,65.8,63,79,11.99,0,0
484,Kaka,TM,2022-03-26 00:25:49,37.3482,59.6143,Clouds,overcast clouds,49.26,70,99,3.49,0,0
485,Tomatlan,MX,2022-03-26 00:25:49,19.9333,-105.25,Clear,clear sky,79.57,37,2,6.35,0,0
486,Maniitsoq,GL,2022-03-26 00:25:50,65.4167,-52.9,Clouds,overcast clouds,13.66,88,100,5.46,0,0
487,San Nicolas,PH,2022-03-26 00:25:50,18.1725,120.5953,Clouds,few clouds,84.11,74,20,3.44,0,0
488,Batagay-Alyta,RU,2022-03-26 00:25:50,67.8006,130.4114,Clouds,broken clouds,-1.17,82,74,2.98,0,0
489,Digha,IN,2022-03-26 00:25:51,21.6833,87.55,Clouds,broken clouds,77.59,88,53,18.48,0,0
490,Straumen,NO,2022-03-26 00:25:51,63.8709,11.2999,Rain,light rain,39.2,76,95,22.91,0,0
491,Belomorsk,RU,2022-03-26 00:25:51,64.5232,34.7668,Snow,snow,28.74,97,100,10.96,0,0
492,Colares,PT,2022-03-26 00:25:52,38.7992,-9.4469,Clouds,overcast clouds,60.76,67,86,14.0,0,0
493,Kichera,RU,2022-03-26 00:25:52,55.9375,110.0997,Clouds,overcast clouds,13.08,81,89,2.55,0,0
494,Salinopolis,BR,2022-03-26 00:25:39,-0.6136,-47.3561,Rain,light rain,78.33,86,100,7.85,0,0
495,Berdigestyakh,RU,2022-03-26 00:25:53,62.0989,126.6992,Clouds,overcast clouds,15.62,95,100,1.81,0,0
496,Kavaratti,IN,2022-03-26 00:25:53,10.5669,72.642,Clear,clear sky,81.32,68,5,4.61,0,0
497,Vila Franca Do Campo,PT,2022-03-26 00:25:54,37.7167,-25.4333,Clouds,overcast clouds,61.21,89,100,24.87,0,0
498,Novobureyskiy,RU,2022-03-26 00:25:54,49.798,129.8774,Clouds,overcast clouds,30.06,92,100,7.83,0,0
499,Ranong,TH,2022-03-26 00:25:54,9.9658,98.6348,Clear,clear sky,73.33,87,3,2.57,0,0
500,Kasongo,CD,2022-03-26 00:25:55,-4.45,26.6667,Clouds,broken clouds,69.96,90,59,2.57,0,0
501,Canyon,US,2022-03-26 00:25:55,34.9803,-101.9188,Clear,clear sky,69.01,32,1,11.68,0,0
502,Urdoma,RU,2022-03-26 00:25:56,61.7533,48.5442,Clouds,overcast clouds,21.74,86,97,10.25,0,0
503,Fuerte Olimpo,PY,2022-03-26 00:25:56,-21.0415,-57.8738,Clouds,overcast clouds,67.26,60,100,1.95,0,0
504,Yilan,TW,2022-03-26 00:25:56,24.757,121.753,Rain,light rain,80.02,99,83,0.89,0,0
505,Asfi,MA,2022-03-26 00:25:57,32.2994,-9.2372,Clouds,few clouds,58.39,80,15,7.38,0,0
506,Kasongo-Lunda,CD,2022-03-26 00:25:57,-6.4667,16.8167,Rain,light rain,70.34,97,74,0.51,0,0
507,Montepuez,MZ,2022-03-26 00:25:58,-13.1256,38.9997,Clouds,scattered clouds,69.21,97,26,1.61,0,0
508,Skjervoy,NO,2022-03-26 00:25:58,70.0311,20.9714,Snow,light snow,23.0,82,100,4.79,0,0
509,Vargem Grande,BR,2022-03-26 00:25:58,-3.5431,-43.9158,Rain,heavy intensity rain,74.08,97,47,1.88,0,0
510,Cururupu,BR,2022-03-26 00:25:59,-1.8283,-44.8683,Clouds,broken clouds,75.13,95,77,3.09,0,0
511,Sarakhs,IR,2022-03-26 00:25:59,36.5449,61.1577,Clouds,broken clouds,50.14,71,73,4.61,0,0
512,Srednekolymsk,RU,2022-03-26 00:25:59,67.45,153.6833,Snow,light snow,7.47,94,100,16.11,0,0
513,Biltine,TD,2022-03-26 00:26:00,14.5333,20.9167,Clear,clear sky,74.64,10,9,21.77,0,0
514,Nemuro,JP,2022-03-26 00:26:00,43.3236,145.575,Rain,light rain,36.19,88,99,14.16,0,0
515,Ryotsu,JP,2022-03-26 00:26:01,38.0833,138.4333,Rain,light rain,51.48,68,100,4.99,0,0
516,Mount Isa,AU,2022-03-26 00:26:00,-20.7333,139.5,Clouds,scattered clouds,87.57,35,40,8.05,0,0
517,Komarichi,RU,2022-03-26 00:26:01,52.4151,34.7905,Clouds,broken clouds,33.37,93,71,8.14,0,0
518,Rio Verde De Mato Grosso,BR,2022-03-26 00:26:02,-18.9181,-54.8442,Clouds,overcast clouds,72.52,98,98,3.8,0,0
519,Erie,US,2022-03-26 00:26:02,42.7667,-78.6664,Clouds,overcast clouds,37.26,84,100,5.01,0,0
520,Atar,MR,2022-03-26 00:24:57,20.5169,-13.0499,Clouds,few clouds,69.58,25,23,6.13,0,0
521,Hambantota,LK,2022-03-26 00:26:02,6.1241,81.1185,Clouds,few clouds,73.74,100,20,2.3,0,0
522,Saquarema,BR,2022-03-26 00:26:03,-22.92,-42.5103,Clouds,broken clouds,77.14,87,73,9.01,0,0
523,Clearwater,US,2022-03-26 00:24:54,27.9659,-82.8001,Clouds,overcast clouds,69.93,72,100,16.11,0,0
524,Mountain Home,US,2022-03-26 00:26:03,43.133,-115.6912,Clear,clear sky,71.08,100,0,10.36,0,0
525,Hinganghat,IN,2022-03-26 00:26:04,20.5667,78.8333,Clouds,overcast clouds,84.78,29,92,4.76,0,0
526,Almaznyy,RU,2022-03-26 00:26:04,48.0448,40.045,Clear,clear sky,34.59,67,4,4.68,0,0
527,Slantsy,RU,2022-03-26 00:26:04,59.1182,28.0914,Clouds,overcast clouds,38.3,82,98,11.65,0,0
528,Balrampur,IN,2022-03-26 00:26:05,27.4333,82.1833,Clear,clear sky,68.07,18,0,8.72,0,0
529,Zaliznychne,UA,2022-03-26 00:26:05,45.7489,28.6147,Clouds,scattered clouds,38.55,68,45,10.74,0,0
530,Ozark,US,2022-03-26 00:26:06,37.0209,-93.206,Clouds,broken clouds,52.21,46,69,3.0,0,0
531,Cartagena Del Chaira,CO,2022-03-26 00:26:06,1.3349,-74.8429,Clouds,overcast clouds,75.56,89,85,2.53,0,0
532,Turkistan,KZ,2022-03-26 00:26:06,43.0,68.0,Rain,moderate rain,52.77,52,98,9.08,0,0
533,Iwade,JP,2022-03-26 00:26:07,34.25,135.3167,Rain,moderate rain,64.2,81,100,21.45,0,0
534,Ajdabiya,LY,2022-03-26 00:26:07,30.7554,20.2263,Clear,clear sky,54.95,67,0,7.2,0,0
535,Bereda,ES,2022-03-26 00:26:08,43.2686,-7.5406,Clouds,overcast clouds,50.58,100,95,1.72,0,0
536,Junin,AR,2022-03-26 00:23:51,-34.5838,-60.9433,Clouds,overcast clouds,62.22,77,100,17.65,0,0
537,Pudozh,RU,2022-03-26 00:26:08,61.8099,36.5345,Snow,snow,34.14,99,100,10.96,0,0
538,Henties Bay,NA,2022-03-26 00:26:09,-22.116,14.2845,Clouds,scattered clouds,62.49,87,39,4.72,0,0
539,Lidkoping,SE,2022-03-26 00:26:09,58.5052,13.1577,Clouds,overcast clouds,48.72,82,100,8.01,0,0
540,Gaoua,BF,2022-03-26 00:26:09,10.2992,-3.2508,Clouds,overcast clouds,81.68,63,100,1.79,0,0
541,Wajir,KE,2022-03-26 00:26:10,1.7471,40.0573,Clouds,broken clouds,81.61,65,80,15.57,0,0
542,Novyy Urengoy,RU,2022-03-26 00:26:10,66.0833,76.6333,Snow,light snow,15.82,94,100,20.36,0,0
543,Nouakchott,MR,2022-03-26 00:26:11,18.0858,-15.9785,Clouds,few clouds,66.13,73,15,13.98,0,0
544,Bay Roberts,CA,2022-03-26 00:26:11,47.5999,-53.2648,Clouds,overcast clouds,31.33,78,100,3.0,0,0
545,Chiplun,IN,2022-03-26 00:26:12,17.5333,73.5167,Clouds,overcast clouds,76.91,76,87,2.17,0,0
546,Hofn,IS,2022-03-26 00:26:12,64.2539,-15.2082,Clouds,overcast clouds,36.0,83,100,12.59,0,0
547,Warragul,AU,2022-03-26 00:25:05,-38.1667,145.9333,Clouds,few clouds,68.43,74,21,7.0,0,0
548,Aberdeen,GB,2022-03-26 00:26:13,57.1437,-2.0981,Clouds,scattered clouds,43.48,87,49,5.75,0,0
549,Kavieng,PG,2022-03-26 00:26:13,-2.5744,150.7967,Clouds,overcast clouds,83.17,68,100,6.17,0,0
550,Guymon,US,2022-03-26 00:26:14,36.6828,-101.4816,Clear,clear sky,62.6,29,0,8.05,0,0
551,Murray Bridge,AU,2022-03-26 00:26:14,-35.1167,139.2667,Clear,clear sky,68.83,48,0,4.36,0,0
552,Adrar,MR,2022-03-26 00:26:14,20.5022,-10.0711,Clouds,few clouds,67.46,26,21,9.24,0,0
553,Kloulklubed,PW,2022-03-26 00:26:15,7.0419,134.2556,Clouds,overcast clouds,81.1,79,96,14.52,0,0
554,Cascais,PT,2022-03-26 00:26:15,38.6979,-9.4215,Clouds,broken clouds,60.94,67,82,14.0,0,0
555,Jibuti,DJ,2022-03-26 00:26:15,11.5,42.5,Clear,clear sky,74.97,67,4,1.41,0,0
556,Bad Doberan,DE,2022-03-26 00:26:16,54.1071,11.9005,Clear,clear sky,48.97,80,9,12.73,0,0
557,Broome,US,2022-03-26 00:26:16,42.2506,-75.833,Rain,light rain,44.46,77,100,9.22,0,0
558,Sinnamary,GF,2022-03-26 00:26:17,5.3833,-52.95,Clouds,broken clouds,77.74,86,62,14.47,0,0
559,Mvuma,ZW,2022-03-26 00:26:17,-19.2792,30.5283,Rain,light rain,61.97,94,94,0.43,0,0
560,Tefe,BR,2022-03-26 00:26:17,-3.3542,-64.7114,Rain,moderate rain,75.88,97,59,2.91,0,0
561,San Juan,AR,2022-03-26 00:25:53,-31.5375,-68.5364,Clear,clear sky,67.19,22,0,7.34,0,0
562,Hobyo,SO,2022-03-26 00:26:18,5.3505,48.5268,Rain,moderate rain,81.5,75,95,8.14,0,0
563,Tambopata,PE,2022-03-26 00:26:18,-12.7333,-69.1833,Rain,light rain,74.59,98,99,1.72,0,0
564,Boyolangu,ID,2022-03-26 00:26:19,-8.1181,111.8935,Clouds,scattered clouds,78.3,86,38,1.99,0,0
565,Abong Mbang,CM,2022-03-26 00:26:19,3.9833,13.1833,Clouds,broken clouds,68.54,69,55,2.75,0,0
566,Anori,BR,2022-03-26 00:26:19,-3.7728,-61.6442,Clouds,broken clouds,76.21,90,63,2.13,0,0
567,Butoiesti,RO,2022-03-26 00:26:20,44.5833,23.3667,Clouds,scattered clouds,39.04,83,33,2.73,0,0
568,Praia Da Vitoria,PT,2022-03-26 00:26:20,38.7333,-27.0667,Clouds,broken clouds,61.05,94,75,30.02,0,0
569,San Jeronimo,PE,2022-03-26 00:26:20,-11.9472,-75.2829,Clouds,overcast clouds,52.18,80,96,4.27,0,0
570,Tongzi,CN,2022-03-26 00:26:21,28.7829,105.0877,Clouds,overcast clouds,56.71,80,100,8.05,0,0
571,Petrivka,UA,2022-03-26 00:26:22,46.9695,30.9591,Clouds,few clouds,39.18,74,16,7.34,0,0
572,Totness,SR,2022-03-26 00:26:22,5.8833,-56.3167,Clouds,overcast clouds,77.31,87,94,14.65,0,0
573,Maltahohe,NA,2022-03-26 00:26:22,-24.8333,16.9833,Clouds,scattered clouds,67.68,30,27,6.33,0,0
574,Belmonte,BR,2022-03-26 00:26:23,-15.8631,-38.8828,Clear,clear sky,77.59,80,4,6.67,0,0
575,Kysyl-Syr,RU,2022-03-26 00:26:23,63.8986,122.7617,Clouds,overcast clouds,9.84,97,100,3.98,0,0
576,Anchorage,US,2022-03-26 00:21:59,61.2181,-149.9003,Clouds,broken clouds,46.45,55,75,11.01,0,0
577,Ust-Barguzin,RU,2022-03-26 00:24:15,53.45,108.9833,Clouds,broken clouds,7.32,94,70,1.19,0,0
578,Taldan,RU,2022-03-26 00:26:24,53.6667,124.8,Clouds,overcast clouds,23.7,84,100,3.69,0,0
579,Sandwick,GB,2022-03-26 00:26:25,60.0,-1.25,Mist,mist,44.42,100,100,9.22,0,0
580,Ballina,AU,2022-03-26 00:26:25,-28.8667,153.5667,Clouds,overcast clouds,71.78,92,100,12.66,0,0
581,Burley,US,2022-03-26 00:26:25,42.5357,-113.7928,Clear,clear sky,72.19,22,0,8.05,0,0
582,Playa Vicente,MX,2022-03-26 00:26:26,17.8333,-95.8167,Clouds,overcast clouds,76.89,38,97,11.41,0,0
583,Kaeo,NZ,2022-03-26 00:26:26,-35.1,173.7833,Clouds,broken clouds,77.32,60,66,9.46,0,0
584,Mama,RU,2022-03-26 00:26:26,58.3106,112.8986,Clouds,overcast clouds,17.76,87,100,0.72,0,0
585,Umm Lajj,SA,2022-03-26 00:26:27,25.0213,37.2685,Clear,clear sky,62.17,54,0,14.0,0,0
586,Barreirinhas,BR,2022-03-26 00:26:27,-2.7469,-42.8264,Rain,moderate rain,76.87,89,55,5.1,0,0
587,Jerusalem,IL,2022-03-26 00:26:28,31.769,35.2163,Clouds,few clouds,43.72,92,22,1.01,0,0
588,Labuhan,ID,2022-03-26 00:26:28,-6.8844,112.2051,Clouds,overcast clouds,80.56,82,100,6.13,0,0
589,San Joaquin,US,2022-03-26 00:26:28,37.9333,-121.3011,Clear,clear sky,82.36,20,0,6.91,0,0
590,Meylan,FR,2022-03-26 00:26:29,45.2199,5.7901,Clouds,few clouds,52.29,65,12,3.04,0,0
591,Kanniyakumari,IN,2022-03-26 00:26:29,8.0833,77.5667,Clear,clear sky,79.95,77,5,3.98,0,0
592,Jiwani,PK,2022-03-26 00:26:30,25.05,61.7417,Clear,clear sky,78.33,55,0,11.61,0,0
593,Williams Lake,CA,2022-03-26 00:26:30,52.1415,-122.1445,Clouds,broken clouds,45.97,49,75,4.61,0,0
594,Lompoc,US,2022-03-26 00:26:31,34.6391,-120.4579,Mist,mist,73.02,80,0,10.36,0,0
595,Marion,US,2022-03-26 00:26:31,39.7684,-86.1555,Clouds,broken clouds,46.72,78,75,13.8,0,0
596,Olinda,BR,2022-03-26 00:23:08,-8.0089,-34.8553,Clouds,broken clouds,78.53,83,75,10.36,0,0
597,Tuy Hoa,VN,2022-03-26 00:26:32,13.0833,109.3,Clouds,overcast clouds,79.34,78,88,4.54,0,0
598,Amalapuram,IN,2022-03-26 00:26:32,16.5833,82.0167,Clouds,scattered clouds,74.08,96,35,0.65,0,0
599,Kirakira,SB,2022-03-26 00:26:32,-10.4544,161.9205,Clouds,scattered clouds,84.06,74,31,4.81,0,0
600,Opuwo,NA,2022-03-26 00:26:33,-18.0607,13.84,Clouds,scattered clouds,65.25,58,42,2.68,0,0
601,Chumphon,TH,2022-03-26 00:26:33,10.3333,98.8333,Clouds,few clouds,71.87,93,12,0.34,0,0
602,Juneau,US,2022-03-26 00:24:46,58.3019,-134.4197,Snow,snow,42.98,90,100,13.8,0,0
603,Kosh-Agach,RU,2022-03-26 00:26:34,50.0,88.6667,Clouds,few clouds,-9.33,86,19,3.62,0,0
604,Amapa,BR,2022-03-26 00:26:34,1.0,-52.0,Clouds,overcast clouds,73.06,98,90,4.05,0,0
605,Kamenka,RU,2022-03-26 00:26:35,51.3223,42.7678,Clouds,overcast clouds,27.91,96,100,6.33,0,0
606,Gazli,UZ,2022-03-26 00:26:35,40.1333,63.45,Clouds,broken clouds,50.83,57,68,15.41,0,0
607,Barra Do Garcas,BR,2022-03-26 00:26:35,-15.89,-52.2567,Clouds,overcast clouds,74.35,92,89,1.54,0,0
608,Novobiryusinskiy,RU,2022-03-26 00:26:36,56.9578,97.7076,Clouds,overcast clouds,10.6,96,85,4.85,0,0
609,High Level,CA,2022-03-26 00:26:36,58.5169,-117.136,Clouds,broken clouds,14.11,48,75,10.36,0,0
610,Beloha,MG,2022-03-26 00:26:37,-25.1667,45.05,Clouds,broken clouds,72.39,94,73,1.97,0,0
611,Port Keats,AU,2022-03-26 00:26:37,-14.25,129.55,Rain,moderate rain,85.41,69,99,2.15,0,0
612,Lasa,IT,2022-03-26 00:26:37,46.6166,10.7002,Clouds,broken clouds,42.03,82,56,0.31,0,0
613,Kuah,MY,2022-03-26 00:26:38,6.3265,99.8432,Clouds,few clouds,76.98,94,20,3.44,0,0
614,Matara,LK,2022-03-26 00:26:38,5.9485,80.5353,Clear,clear sky,75.29,89,5,1.14,0,0
615,Mancio Lima,BR,2022-03-26 00:26:40,-7.6142,-72.8958,Rain,light rain,73.2,94,94,1.48,0,0
616,Tabas,IR,2022-03-26 00:26:40,33.5959,56.9244,Clear,clear sky,62.6,15,0,5.3,0,0
617,Constitucion,CL,2022-03-26 00:26:40,-35.3333,-72.4167,Clear,clear sky,54.52,79,3,3.27,0,0
618,Tokur,RU,2022-03-26 00:26:41,53.1333,132.9,Clouds,overcast clouds,15.96,87,99,3.13,0,0
619,Galveston,US,2022-03-26 00:26:06,29.3669,-94.9669,Clear,clear sky,76.17,56,0,9.22,0,0
620,Inhambane,MZ,2022-03-26 00:26:41,-23.865,35.3833,Rain,light rain,77.27,88,74,5.57,0,0
621,Lazaro Cardenas,MX,2022-03-26 00:26:41,17.9583,-102.2,Clouds,broken clouds,80.33,44,60,7.2,0,0
622,Banda Aceh,ID,2022-03-26 00:26:42,5.5577,95.3222,Clouds,broken clouds,79.66,81,69,2.55,0,0
623,Manokwari,ID,2022-03-26 00:26:42,-0.8667,134.0833,Rain,moderate rain,79.36,79,100,0.16,0,0
624,Marzuq,YE,2022-03-26 00:26:43,14.4,46.4667,Clear,clear sky,67.89,56,1,5.12,0,0
625,Riberalta,BO,2022-03-26 00:26:43,-10.9833,-66.1,Clouds,broken clouds,76.32,92,79,2.04,0,0
626,Champerico,GT,2022-03-26 00:26:43,14.3,-91.9167,Clouds,overcast clouds,81.14,65,98,6.71,0,0
627,Kapit,MY,2022-03-26 00:26:44,2.0167,112.9333,Clouds,overcast clouds,76.15,97,100,0.09,0,0
628,Wladyslawowo,PL,2022-03-26 00:26:44,54.7909,18.4009,Clouds,broken clouds,49.01,78,81,26.24,0,0
629,Muhos,FI,2022-03-26 00:26:44,64.808,25.9931,Snow,light snow,26.38,95,100,9.42,0,0
630,Kuusamo,FI,2022-03-26 00:26:45,65.9667,29.1833,Clouds,overcast clouds,21.24,86,100,11.5,0,0
631,Sterling,US,2022-03-26 00:22:18,39.0062,-77.4286,Clouds,broken clouds,57.22,53,75,12.66,0,0
632,Salto,UY,2022-03-26 00:22:01,-31.3833,-57.9667,Clouds,overcast clouds,62.87,84,90,5.99,0,0
633,Moose Factory,CA,2022-03-26 00:26:46,51.2585,-80.6094,Clouds,overcast clouds,30.2,93,100,3.44,0,0
634,Kiruna,SE,2022-03-26 00:26:46,67.8557,20.2251,Snow,light snow,18.52,93,100,16.11,0,0
635,Abeche,TD,2022-03-26 00:26:47,13.8292,20.8324,Clouds,broken clouds,75.11,10,55,17.52,0,0
636,Samarai,PG,2022-03-26 00:26:47,-10.6167,150.6667,Clouds,overcast clouds,86.04,69,100,14.76,0,0
637,Glenwood Springs,US,2022-03-26 00:26:47,39.5505,-107.3248,Clear,clear sky,67.12,38,0,8.05,0,0
638,Kupang,ID,2022-03-26 00:26:48,-10.1667,123.5833,Clouds,broken clouds,81.14,83,60,2.86,0,0
639,Oistins,BB,2022-03-26 00:26:22,13.0667,-59.5333,Clouds,scattered clouds,78.89,69,40,19.57,0,0
640,Padang,ID,2022-03-26 00:26:48,-0.9492,100.3543,Clouds,scattered clouds,76.91,77,41,3.62,0,0
641,Hammerfest,NO,2022-03-26 00:26:49,70.6634,23.6821,Snow,shower snow,21.65,93,100,9.22,0,0
642,Alofi,NU,2022-03-26 00:26:49,-19.0595,-169.9187,Clouds,overcast clouds,78.69,94,95,6.91,0,0
643,Nago,JP,2022-03-26 00:26:50,26.5881,127.9761,Clouds,overcast clouds,75.63,93,100,18.88,0,0
644,Ushtobe,KZ,2022-03-26 00:26:50,45.2514,77.9838,Clouds,broken clouds,37.63,53,71,5.91,0,0
645,Singaraja,ID,2022-03-26 00:26:50,-8.112,115.0882,Clouds,broken clouds,82.38,77,60,1.19,0,0
646,Maralal,KE,2022-03-26 00:26:51,1.0968,36.698,Rain,light rain,60.89,78,87,4.5,0,0
647,Quilmana,PE,2022-03-26 00:26:51,-12.95,-76.3833,Clouds,overcast clouds,71.74,80,88,4.03,0,0
648,Turtas,RU,2022-03-26 00:26:52,58.9417,69.1325,Clouds,overcast clouds,10.31,91,93,9.55,0,0
649,Ust-Nera,RU,2022-03-26 00:26:52,64.5667,143.2,Clouds,overcast clouds,2.44,95,100,3.11,0,0
650,Langsa,ID,2022-03-26 00:26:52,4.4683,97.9683,Clouds,scattered clouds,74.64,95,50,2.35,0,0
651,Virginia Beach,US,2022-03-26 00:26:41,36.8529,-75.978,Clouds,broken clouds,63.01,67,75,6.91,0,0
652,Hanna,CA,2022-03-26 00:26:53,51.6334,-111.9018,Clouds,overcast clouds,41.86,40,100,14.0,0,0
653,Puerto Rico,AR,2022-03-26 00:26:53,-26.796,-55.024,Clear,clear sky,59.31,81,0,2.19,0,0
654,Liuzhou,CN,2022-03-26 00:26:54,24.3126,109.3892,Clouds,overcast clouds,61.7,79,97,10.33,0,0
655,Honiara,SB,2022-03-26 00:26:54,-9.4333,159.95,Clouds,broken clouds,81.99,86,64,4.18,0,0
656,Ayan,RU,2022-03-26 00:26:54,56.45,138.1667,Clouds,overcast clouds,24.24,77,96,2.42,0,0
657,La Primavera,CO,2022-03-26 00:26:55,5.4906,-70.4092,Clouds,overcast clouds,87.66,48,86,4.14,0,0
658,Sinfra,CI,2022-03-26 00:26:55,6.6167,-5.9167,Rain,light rain,72.82,97,98,2.46,0,0
659,Ibicarai,BR,2022-03-26 00:26:56,-14.865,-39.5875,Clouds,few clouds,69.94,96,17,1.66,0,0
660,Bibiani,GH,2022-03-26 00:26:56,6.4635,-2.3194,Rain,light rain,73.49,97,100,2.26,0,0
661,Manuk Mangkaw,PH,2022-03-26 00:26:56,4.8,119.85,Clouds,scattered clouds,82.65,75,36,4.18,0,0
662,Markova,UA,2022-03-26 00:26:57,48.6758,24.4138,Clouds,scattered clouds,36.3,77,31,6.08,0,0
663,Nganjuk,ID,2022-03-26 00:26:57,-7.6051,111.9035,Rain,light rain,78.31,89,45,2.44,0,0
664,Paamiut,GL,2022-03-26 00:27:00,61.994,-49.6678,Clouds,scattered clouds,15.64,84,34,5.77,0,0
665,Yakeshi,CN,2022-03-26 00:27:00,49.2833,120.7333,Clouds,broken clouds,15.22,85,84,4.23,0,0
666,San Fernando,PH,2022-03-26 00:27:01,15.0286,120.6898,Clouds,few clouds,82.63,68,14,4.83,0,0
667,Pombas,CV,2022-03-26 00:27:01,17.1503,-25.0201,Clouds,scattered clouds,65.98,75,36,9.01,0,0
668,Bani Walid,LY,2022-03-26 00:27:02,31.7566,13.9942,Clear,clear sky,52.5,64,0,9.28,0,0
669,Ekhabi,RU,2022-03-26 00:27:02,53.5102,142.9671,Clouds,overcast clouds,25.88,95,99,4.97,0,0
670,Xichang,CN,2022-03-26 00:27:03,27.8964,102.2634,Clouds,overcast clouds,50.45,86,100,6.15,0,0
671,Khudumelapye,BW,2022-03-26 00:27:03,-23.8833,24.75,Clouds,broken clouds,63.36,84,84,5.57,0,0
672,Pingliang,CN,2022-03-26 00:27:03,35.5392,106.6861,Clouds,overcast clouds,41.4,40,100,4.09,0,0
673,Amahai,ID,2022-03-26 00:27:04,-3.3333,128.9167,Clouds,overcast clouds,80.83,79,100,2.55,0,0
674,Acarau,BR,2022-03-26 00:27:08,-2.8856,-40.12,Clouds,scattered clouds,78.39,84,44,8.39,0,0
675,Dong Hoi,VN,2022-03-26 00:27:09,17.4833,106.6,Clouds,broken clouds,79.45,82,59,4.9,0,0
676,Lervik,GB,2022-03-26 00:27:09,60.1545,-1.1494,Clouds,overcast clouds,44.6,93,100,9.1,0,0
677,El Roble,CO,2022-03-26 00:27:10,9.1019,-75.1951,Clouds,broken clouds,82.42,66,70,12.17,0,0
678,Jacareacanga,BR,2022-03-26 00:27:10,-6.2222,-57.7528,Clouds,overcast clouds,74.88,96,99,2.1,0,0
679,Golden,US,2022-03-26 00:26:05,39.7555,-105.2211,Clouds,few clouds,65.25,28,20,4.0,0,0
680,Alabaster,US,2022-03-26 00:23:12,33.2443,-86.8164,Clear,clear sky,60.98,52,0,9.22,0,0
681,Krasnoselkup,RU,2022-03-26 00:27:11,65.7,82.4667,Snow,snow,22.01,95,100,19.84,0,0
682,Tahe,CN,2022-03-26 00:27:12,52.3333,124.7333,Clouds,overcast clouds,24.4,89,100,2.15,0,0
683,Beringovskiy,RU,2022-03-26 00:27:12,63.05,179.3167,Clouds,broken clouds,14.23,88,83,3.15,0,0
684,Puerto Quijarro,BO,2022-03-26 00:27:13,-17.7833,-57.7667,Clouds,broken clouds,72.61,71,56,5.91,0,0
685,Butia,BR,2022-03-26 00:27:13,-30.1197,-51.9622,Clouds,scattered clouds,66.04,62,36,7.92,0,0
686,Riachao Das Neves,BR,2022-03-26 00:27:13,-11.7461,-44.91,Clouds,broken clouds,77.97,58,52,3.24,0,0
